stop_id,stop_code,stop_name,stop_desc,stop_lat,stop_lon,stop_url,wheelchair_boarding,stop_timezone,location_type,parent_station
BD1,BD1,"Rebibbia",,41.925726,12.572617,http://muovi.roma.it/percorso/js?query=&cl=1,,Europe/Rome,,
BD2,BD2,"Ponte Mammolo",,41.920976,12.565083,http://muovi.roma.it/percorso/js?query=&cl=1,,Europe/Rome,,
BD3,BD3,"S.m. Del Soccorso",,41.916183,12.561243,http://muovi.roma.it/percorso/js?query=&cl=1,,Europe/Rome,,
BD4,BD4,"Pietralata",,41.914133,12.555642,http://muovi.roma.it/percorso/js?query=&cl=1,,Europe/Rome,,
BD5,BD5,"Monti Tiburtini",,41.916109,12.547616,http://muovi.roma.it/percorso/js?query=&cl=1,,Europe/Rome,,
BD6,BD6,"Quintiliani",,41.914934,12.538864,http://muovi.roma.it/percorso/js?query=&cl=1,,Europe/Rome,,
BD7,BD7,"Tiburtina F.s.",,41.910247,12.530286,http://muovi.roma.it/percorso/js?query=&cl=1,,Europe/Rome,,
BD8,BD8,"Bologna",,41.913665,12.520810,http://muovi.roma.it/percorso/js?query=&cl=1,,Europe/Rome,,
BD9,BD9,"Policlinico",,41.908876,12.512187,http://muovi.roma.it/percorso/js?query=&cl=1,,Europe/Rome,,
BD10,BD10,"Castro Pretorio",,41.906264,12.505364,http://muovi.roma.it/percorso/js?query=&cl=1,,Europe/Rome,,
BD11,BD11,"Termini",,41.901026,12.500052,http://muovi.roma.it/percorso/js?query=&cl=1,,Europe/Rome,,
BD12,BD12,"Cavour",,41.895137,12.493609,http://muovi.roma.it/percorso/js?query=&cl=1,,Europe/Rome,,
BD13,BD13,"Colosseo",,41.891290,12.491474,http://muovi.roma.it/percorso/js?query=&cl=1,,Europe/Rome,,
BD14,BD14,"Circo Massimo",,41.883486,12.487731,http://muovi.roma.it/percorso/js?query=&cl=1,,Europe/Rome,,
BD15,BD15,"Piramide",,41.875651,12.481967,http://muovi.roma.it/percorso/js?query=&cl=1,,Europe/Rome,,
BD16,BD16,"Garbatella",,41.866523,12.483034,http://muovi.roma.it/percorso/js?query=&cl=1,,Europe/Rome,,
BD17,BD17,"Basilica San Paolo",,41.855981,12.478110,http://muovi.roma.it/percorso/js?query=&cl=1,,Europe/Rome,,
BD18,BD18,"Marconi",,41.848836,12.475439,http://muovi.roma.it/percorso/js?query=&cl=1,,Europe/Rome,,
BD19,BD19,"Eur Magliana",,41.839597,12.463477,http://muovi.roma.it/percorso/js?query=&cl=1,,Europe/Rome,,
BD20,BD20,"Eur Palasport",,41.830075,12.465970,http://muovi.roma.it/percorso/js?query=&cl=1,,Europe/Rome,,
BD21,BD21,"Eur Fermi",,41.828640,12.470875,http://muovi.roma.it/percorso/js?query=&cl=1,,Europe/Rome,,
BD22,BD22,"Laurentina",,41.827156,12.480614,http://muovi.roma.it/percorso/js?query=&cl=1,,Europe/Rome,,
BP1,BP1,"Laurentina",,41.827234,12.480657,http://muovi.roma.it/percorso/js?query=&cl=1,,Europe/Rome,,
BP2,BP2,"Eur Fermi",,41.828775,12.470958,http://muovi.roma.it/percorso/js?query=&cl=1,,Europe/Rome,,
BP3,BP3,"Eur Palasport",,41.830195,12.466027,http://muovi.roma.it/percorso/js?query=&cl=1,,Europe/Rome,,
BP4,BP4,"Eur Magliana",,41.839517,12.463584,http://muovi.roma.it/percorso/js?query=&cl=1,,Europe/Rome,,
BP5,BP5,"Marconi",,41.848803,12.475642,http://muovi.roma.it/percorso/js?query=&cl=1,,Europe/Rome,,
BP6,BP6,"Basilica San Paolo",,41.855978,12.478559,http://muovi.roma.it/percorso/js?query=&cl=1,,Europe/Rome,,
BP7,BP7,"Garbatella",,41.866461,12.483265,http://muovi.roma.it/percorso/js?query=&cl=1,,Europe/Rome,,
BP8,BP8,"Piramide",,41.875713,12.482177,http://muovi.roma.it/percorso/js?query=&cl=1,,Europe/Rome,,
BP9,BP9,"Circo Massimo",,41.883324,12.487968,http://muovi.roma.it/percorso/js?query=&cl=1,,Europe/Rome,,
BP10,BP10,"Colosseo",,41.891222,12.491604,http://muovi.roma.it/percorso/js?query=&cl=1,,Europe/Rome,,
BP11,BP11,"Cavour",,41.894972,12.494011,http://muovi.roma.it/percorso/js?query=&cl=1,,Europe/Rome,,
BP12,BP12,"Termini",,41.900916,12.500259,http://muovi.roma.it/percorso/js?query=&cl=1,,Europe/Rome,,
BP13,BP13,"Castro Pretorio",,41.906140,12.505620,http://muovi.roma.it/percorso/js?query=&cl=1,,Europe/Rome,,
BP14,BP14,"Policlinico",,41.908546,12.512219,http://muovi.roma.it/percorso/js?query=&cl=1,,Europe/Rome,,
BP15,BP15,"Bologna",,41.913540,12.520861,http://muovi.roma.it/percorso/js?query=&cl=1,,Europe/Rome,,
BP16,BP16,"Tiburtina F.s.",,41.909949,12.530163,http://muovi.roma.it/percorso/js?query=&cl=1,,Europe/Rome,,
BP17,BP17,"Quintiliani",,41.914651,12.539096,http://muovi.roma.it/percorso/js?query=&cl=1,,Europe/Rome,,
BP18,BP18,"Monti Tiburtini",,41.915828,12.547617,http://muovi.roma.it/percorso/js?query=&cl=1,,Europe/Rome,,
BP19,BP19,"Pietralata",,41.913972,12.555648,http://muovi.roma.it/percorso/js?query=&cl=1,,Europe/Rome,,
BP20,BP20,"S.m. Del Soccorso",,41.915911,12.561639,http://muovi.roma.it/percorso/js?query=&cl=1,,Europe/Rome,,
BP21,BP21,"Ponte Mammolo",,41.920918,12.565234,http://muovi.roma.it/percorso/js?query=&cl=1,,Europe/Rome,,
BP22,BP22,"Rebibbia",,41.925622,12.572738,http://muovi.roma.it/percorso/js?query=&cl=1,,Europe/Rome,,
